[
    {
        "lat": "53.343716",
        "lng": "-6.255002",
        "title": "Trinity College"
    },
    {
        "lat": "53.341597",
        "lng": "-6.260216",
        "title": "Grafton Street"
    },
    {
        "lat": "53.338137",
        "lng": "-6.259136",
        "title": "St Stephen's Green"
    },
    {
        "lat": "53.339584",
        "lng": "-6.258340",
        "title": "Little Museum of Dublin"
    },
    {
        "lat": "53.344858",
        "lng": "-6.260133",
        "title": "Irish Houses of Parliament"
    },
    {
        "lat": "53.340204",
        "lng": "-6.253884",
        "title": "National Gallery of Ireland"
    },
    {
        "lat": "53.339667",
        "lng": "-6.249104",
        "title": "Merion Square"
    },
    {
        "lat": "53.349425",
        "lng": "-6.260297",
        "title": "General Post Office"
    },
    {
        "lat": "53.354154",
        "lng": "-6.260088",
        "title": "James Joyce Centre"
    },
    {
        "lat": "53.348733",
        "lng": "-6.287730",
        "title": "National Museum of Ireland - Decorative Arts & History"
    },
    {
        "lat": "53.357400",
        "lng": "-6.329922",
        "title": "Phoenix Park"
    },
    {
        "lat": "53.342108",
        "lng": "-6.309739",
        "title": "Kilmainham Gaol"
    },
    {
        "lat": "53.343363",
        "lng": "-6.270851",
        "title": "Christ Church Cathedral"
    },
    {
        "lat": "53.339556",
        "lng": "-6.272270",
        "title": "St Patrick's Cathedral"
    },
    {
        "lat": "53.342944",
        "lng": "-6.267313",
        "title": "Dublin Castle"
    },
    {
        "lat": "53.265520",
        "lng": "-6.111880",
        "title": "The Obelisk, Killiney"
    },
    {
        "lat": "53.358226",
        "lng": "-6.195192",
        "title": "Moai replica statue"
    }
]